{"type":"FeatureCollection","features":[{"type":"Feature","geometry":{"type":"Point","coordinates":[98.3412754,7.8228582]},"properties":{"id":"node/571502630","amenity":"police","name":"สถานีตำรวจภูธรฉลอง","name_th":"สถานีตำรวจภูธรฉลอง","operator":"","phone":"","address":"","emergency":""}},{"type":"Feature","geometry":{"type":"Point","coordinates":[98.3025352,7.8967669]},"properties":{"id":"node/663317859","amenity":"police","name":"Police Station Patong","name_th":"","operator":"","phone":"","address":"","emergency":""}},{"type":"Feature","geometry":{"type":"Point","coordinates":[98.278613,8.0559937]},"properties":{"id":"node/672810508","amenity":"school","name":"Ban Naithon School","name_th":"","operator":"","phone":"","address":"","emergency":""}},{"type":"Feature","geometry":{"type":"Point","coordinates":[98.304045,7.898065]},"properties":{"id":"node/683890538","amenity":"fire_station","name":"Patong Municipality Fire Station","name_th":"","operator":"","phone":"","address":"","emergency":""}},{"type":"Feature","geometry":{"type":"Point","coordinates":[98.294844,7.89411]},"properties":{"id":"node/683929456","amenity":"police","name":"Police","name_th":"","operator":"","phone":"","address":"","emergency":""}},{"type":"Feature","geometry":{"type":"Point","coordinates":[98.3015466,8.0926819]},"properties":{"id":"node/701508456","amenity":"school","name":"Watmongkol Wararam School","name_th":"","operator":"","phone":"","address":"","emergency":""}},{"type":"Feature","geometry":{"type":"Point","coordinates":[98.3051099,8.0923347]},"properties":{"id":"node/702197136","amenity":"school","name":"Wat Mongkonwaram School","name_th":"","operator":"","phone":"","address":"","emergency":""}},{"type":"Feature","geometry":{"type":"Point","coordinates":[98.313357,8.1243252]},"properties":{"id":"node/978712328","amenity":"hospital","name":"ไม้ขาว","name_th":"","operator":"","phone":"","address":"","emergency":""}},{"type":"Feature","geometry":{"type":"Point","coordinates":[98.3558364,7.8892102]},"properties":{"id":"node/1049396518","amenity":"police","name":"Police","name_th":"","operator":"","phone":"","address":"","emergency":""}},{"type":"Feature","geometry":{"type":"Point","coordinates":[98.3909854,7.9065293]},"properties":{"id":"node/1743126088","amenity":"hospital","name":"Mission Hospital Phuket","name_th":"","operator":"","phone":"","address":"Thep Krasattri","emergency":""}},{"type":"Feature","geometry":{"type":"Point","coordinates":[98.3420537,8.0858547]},"properties":{"id":"node/2527637281","amenity":"school","name":"โรงเรียนวัดเมืองใหม่","name_th":"","operator":"","phone":"","address":"","emergency":""}},{"type":"Feature","geometry":{"type":"Point","coordinates":[98.3916584,7.9982083]},"properties":{"id":"node/3281032022","amenity":"school","name":"School","name_th":"","operator":"","phone":"","address":"","emergency":""}},{"type":"Feature","geometry":{"type":"Point","coordinates":[98.2956786,7.8318734]},"properties":{"id":"node/3891221561","amenity":"police","name":"Karon Police Station","name_th":"","operator":"","phone":"","address":"","emergency":""}},{"type":"Feature","geometry":{"type":"Point","coordinates":[98.3064296,7.90297]},"properties":{"id":"node/3919973190","amenity":"school","name":"School","name_th":"","operator":"","phone":"","address":"","emergency":""}},{"type":"Feature","geometry":{"type":"Point","coordinates":[98.3136528,8.1571285]},"properties":{"id":"node/3921110296","amenity":"school","name":"School","name_th":"","operator":"","phone":"","address":"","emergency":""}},{"type":"Feature","geometry":{"type":"Point","coordinates":[98.2986703,8.1761185]},"properties":{"id":"node/3921110312","amenity":"clinic","name":"Clinic","name_th":"","operator":"","phone":"","address":"","emergency":""}},{"type":"Feature","geometry":{"type":"Point","coordinates":[98.335439,8.0222817]},"properties":{"id":"node/3921125908","amenity":"school","name":"School","name_th":"","operator":"","phone":"","address":"","emergency":""}},{"type":"Feature","geometry":{"type":"Point","coordinates":[98.3349969,7.9083188]},"properties":{"id":"node/3921157584","amenity":"school","name":"School","name_th":"","operator":"","phone":"","address":"","emergency":""}},{"type":"Feature","geometry":{"type":"Point","coordinates":[98.385608,7.8778124]},"properties":{"id":"node/4328132506","amenity":"school","name":"Daonairoi phuket","name_th":"","operator":"","phone":"","address":"","emergency":""}},{"type":"Feature","geometry":{"type":"Point","coordinates":[98.338625,8.0230867]},"properties":{"id":"node/4409757993","amenity":"hospital","name":"Thalang hospital","name_th":"","operator":"","phone":"","address":"","emergency":""}},{"type":"Feature","geometry":{"type":"Point","coordinates":[98.3600427,7.8707628]},"properties":{"id":"node/4416086190","amenity":"school","name":"kajonkietpattana school","name_th":"","operator":"","phone":"","address":"","emergency":""}},{"type":"Feature","geometry":{"type":"Point","coordinates":[98.3689547,7.8897145]},"properties":{"id":"node/4431831392","amenity":"school","name":"ดาราสมุทรภูเก็ต","name_th":"ดาราสมุทรภูเก็ต","operator":"","phone":"","address":"","emergency":""}},{"type":"Feature","geometry":{"type":"Point","coordinates":[98.4347398,8.1544336]},"properties":{"id":"node/4552224741","amenity":"school","name":"บ้านย่านสะบ้า","name_th":"","operator":"","phone":"","address":"","emergency":""}},{"type":"Feature","geometry":{"type":"Point","coordinates":[98.3938535,7.9380486]},"properties":{"id":"node/4557008997","amenity":"school","name":"โรงเรียนบ้านสะปำ","name_th":"","operator":"","phone":"","address":"","emergency":""}},{"type":"Feature","geometry":{"type":"Point","coordinates":[98.3838087,7.9587633]},"properties":{"id":"node/4567948993","amenity":"school","name":"Da aaburi","name_th":"","operator":"","phone":"","address":"","emergency":""}},{"type":"Feature","geometry":{"type":"Point","coordinates":[98.310736,7.817278]},"properties":{"id":"node/4704255992","amenity":"fire_station","name":"สถานีดับเพลิงกะรน","name_th":"","operator":"","phone":"076330913","address":"โคกโตนด","emergency":""}},{"type":"Feature","geometry":{"type":"Point","coordinates":[98.359702,7.8705343]},"properties":{"id":"node/4732016621","amenity":"police","name":"Police","name_th":"","operator":"","phone":"","address":"","emergency":""}},{"type":"Feature","geometry":{"type":"Point","coordinates":[98.3855204,7.8866091]},"properties":{"id":"node/4783959929","amenity":"school","name":"School","name_th":"","operator":"","phone":"","address":"","emergency":""}},{"type":"Feature","geometry":{"type":"Point","coordinates":[98.3408379,7.824194]},"properties":{"id":"node/4813165821","amenity":"hospital","name":"Chalong Hospital","name_th":"","operator":"","phone":"","address":"","emergency":""}},{"type":"Feature","geometry":{"type":"Point","coordinates":[98.2989054,7.895325]},"properties":{"id":"node/4817868123","amenity":"hospital","name":"Siam International Clinic","name_th":"","operator":"","phone":"095 802 9084","address":"ถนนราษฎร์อุทิศ200ปี","emergency":""}},{"type":"Feature","geometry":{"type":"Point","coordinates":[98.34085,7.8222435]},"properties":{"id":"node/4881646329","amenity":"police","name":"Traffic police","name_th":"","operator":"","phone":"","address":"","emergency":""}},{"type":"Feature","geometry":{"type":"Point","coordinates":[98.3806401,7.881352]},"properties":{"id":"node/5002993925","amenity":"school","name":"Alliance Française, Phuket","name_th":"","operator":"Guillaume Lacoste Hassler","phone":"076222988","address":"3 Thanon Pattana Soi 1, Amphoe Muang","emergency":""}},{"type":"Feature","geometry":{"type":"Point","coordinates":[98.3537729,7.9001068]},"properties":{"id":"node/5110388605","amenity":"police","name":"Tourist Police Info Point","name_th":"","operator":"","phone":"","address":"","emergency":""}},{"type":"Feature","geometry":{"type":"Point","coordinates":[98.3679858,7.9056717]},"properties":{"id":"node/5110960027","amenity":"police","name":"Traffic Police Box","name_th":"","operator":"","phone":"","address":"","emergency":""}},{"type":"Feature","geometry":{"type":"Point","coordinates":[98.3496569,7.8510944]},"properties":{"id":"node/5380381522","amenity":"school","name":"Phuket Top Team MMA center","name_th":"","operator":"","phone":"+66920687009","address":"ถนนเจ้าฟ้า","emergency":""}},{"type":"Feature","geometry":{"type":"Point","coordinates":[98.3433084,7.8555764]},"properties":{"id":"node/5380974121","amenity":"school","name":"Unite 27 CrossFit trainings centr","name_th":"","operator":"","phone":"","address":"เจ้าฟ้าตะวันตก","emergency":""}},{"type":"Feature","geometry":{"type":"Point","coordinates":[98.302384,7.7973941]},"properties":{"id":"node/5381062223","amenity":"police","name":"Police","name_th":"","operator":"","phone":"","address":"","emergency":""}},{"type":"Feature","geometry":{"type":"Point","coordinates":[98.2921649,7.8544094]},"properties":{"id":"node/5390667821","amenity":"police","name":"Police","name_th":"","operator":"","phone":"","address":"","emergency":""}},{"type":"Feature","geometry":{"type":"Point","coordinates":[98.3008673,7.8970668]},"properties":{"id":"node/5398566523","amenity":"clinic","name":"Sainamyen International Clinic","name_th":"","operator":"","phone":"","address":"Sainamyen Road","emergency":""}},{"type":"Feature","geometry":{"type":"Point","coordinates":[98.3034528,8.0656875]},"properties":{"id":"node/5486476069","amenity":"police","name":"Police","name_th":"","operator":"","phone":"","address":"","emergency":""}},{"type":"Feature","geometry":{"type":"Point","coordinates":[98.3010815,7.8302704]},"properties":{"id":"node/5492946221","amenity":"hospital","name":"Healthplus medical clinic","name_th":"","operator":"","phone":"","address":"Patak rd","emergency":""}},{"type":"Feature","geometry":{"type":"Point","coordinates":[98.2771706,7.9229153]},"properties":{"id":"node/5536777921","amenity":"police","name":"frequent police checks","name_th":"","operator":"","phone":"","address":"","emergency":""}},{"type":"Feature","geometry":{"type":"Point","coordinates":[98.2968353,7.8482068]},"properties":{"id":"node/5599755521","amenity":"clinic","name":"Dr. Karon Clinic","name_th":"","operator":"","phone":"","address":"","emergency":""}},{"type":"Feature","geometry":{"type":"Point","coordinates":[98.2956365,8.0021188]},"properties":{"id":"node/5648719022","amenity":"hospital","name":"Hospital","name_th":"","operator":"","phone":"","address":"","emergency":""}},{"type":"Feature","geometry":{"type":"Point","coordinates":[98.2848357,7.8660194]},"properties":{"id":"node/5771345653","amenity":"police","name":"Police","name_th":"","operator":"","phone":"","address":"","emergency":""}},{"type":"Feature","geometry":{"type":"Point","coordinates":[98.3688653,7.8897315]},"properties":{"id":"node/5781114553","amenity":"school","name":"Darasamuth School","name_th":"","operator":"","phone":"","address":"","emergency":""}},{"type":"Feature","geometry":{"type":"Point","coordinates":[98.307155,7.819525]},"properties":{"id":"node/5839221286","amenity":"hospital","name":"Phoenix medical centre","name_th":"","operator":"","phone":"","address":"Patak road","emergency":""}},{"type":"Feature","geometry":{"type":"Point","coordinates":[98.2983278,7.893154]},"properties":{"id":"node/6031321190","amenity":"police","name":"Police","name_th":"","operator":"","phone":"","address":"","emergency":""}},{"type":"Feature","geometry":{"type":"Point","coordinates":[98.2884317,7.9512691]},"properties":{"id":"node/6053970687","amenity":"hospital","name":"CityCare","name_th":"","operator":"","phone":"0882010404","address":"Moo3, Kamala","emergency":""}},{"type":"Feature","geometry":{"type":"Point","coordinates":[98.3337039,8.030009]},"properties":{"id":"node/6109611963","amenity":"police","name":"Police","name_th":"","operator":"","phone":"","address":"","emergency":""}},{"type":"Feature","geometry":{"type":"Point","coordinates":[98.2975676,7.8934507]},"properties":{"id":"node/6185413887","amenity":"hospital","name":"Dr. Bangla Clinic","name_th":"Dr. Bangla International Clinic Patong","operator":"","phone":"076-341-444","address":"31 Bangla Tumbol Patong Amphoe Kathu Phuket 83150","emergency":""}},{"type":"Feature","geometry":{"type":"Point","coordinates":[98.3623304,7.9795192]},"properties":{"id":"node/6216077685","amenity":"police","name":"Police","name_th":"","operator":"","phone":"","address":"","emergency":""}},{"type":"Feature","geometry":{"type":"Point","coordinates":[98.3907514,7.8910154]},"properties":{"id":"node/6285754299","amenity":"school","name":"Satree Phuket school","name_th":"","operator":"","phone":"","address":"","emergency":""}},{"type":"Feature","geometry":{"type":"Point","coordinates":[98.3360191,7.9065723]},"properties":{"id":"node/6377406524","amenity":"school","name":"School","name_th":"","operator":"","phone":"","address":"","emergency":""}},{"type":"Feature","geometry":{"type":"Point","coordinates":[98.3958593,7.8887287]},"properties":{"id":"node/6622743880","amenity":"school","name":"Anubian Phuket School","name_th":"","operator":"","phone":"","address":"","emergency":""}},{"type":"Feature","geometry":{"type":"Point","coordinates":[98.406793,7.8801554]},"properties":{"id":"node/6790046086","amenity":"school","name":"Good Shepherd School","name_th":"","operator":"","phone":"","address":"","emergency":""}},{"type":"Feature","geometry":{"type":"Point","coordinates":[98.3556627,7.8539621]},"properties":{"id":"node/7114800385","amenity":"school","name":"Ban na bon Schule","name_th":"","operator":"","phone":"","address":"","emergency":""}},{"type":"Feature","geometry":{"type":"Point","coordinates":[98.3358671,7.8379528]},"properties":{"id":"node/8134208518","amenity":"school","name":"TARGET Language School","name_th":"","operator":"","phone":"0840093886","address":"เจ้าฟ้าตะวันตก","emergency":""}},{"type":"Feature","geometry":{"type":"Point","coordinates":[98.3283435,7.7986697]},"properties":{"id":"node/8527151417","amenity":"school","name":"Rawai Language School","name_th":"","operator":"","phone":"","address":"","emergency":""}},{"type":"Feature","geometry":{"type":"Point","coordinates":[98.4666009,8.0502783]},"properties":{"id":"node/9342394940","amenity":"hospital","name":"Hospital","name_th":"","operator":"","phone":"","address":"","emergency":""}},{"type":"Feature","geometry":{"type":"Point","coordinates":[98.3258283,7.7941263]},"properties":{"id":"node/9492676698","amenity":"clinic","name":"Saiyuan medical clinic","name_th":"","operator":"","phone":"","address":"","emergency":""}},{"type":"Feature","geometry":{"type":"Point","coordinates":[98.3889703,7.8989661]},"properties":{"id":"node/9602215709","amenity":"clinic","name":"Choetchai Clinic (Orthopedics)","name_th":"","operator":"","phone":"","address":"","emergency":""}},{"type":"Feature","geometry":{"type":"Point","coordinates":[98.390378,7.8978559]},"properties":{"id":"node/9602264107","amenity":"college","name":"Phuket Technology College","name_th":"วิทยาลัยเทคโนโลยีภูเก็ต","operator":"","phone":"","address":"","emergency":""}},{"type":"Feature","geometry":{"type":"Point","coordinates":[98.3901565,7.8980585]},"properties":{"id":"node/9602394834","amenity":"university","name":"Ratchaphruek University","name_th":"มหาวิทยาลัยราชพฤกษ์","operator":"","phone":"","address":"","emergency":""}},{"type":"Feature","geometry":{"type":"Point","coordinates":[98.3017326,7.8970651]},"properties":{"id":"node/9605913040","amenity":"school","name":"Anubaan Tessaban Muang Patong School","name_th":"","operator":"","phone":"","address":"","emergency":""}},{"type":"Feature","geometry":{"type":"Point","coordinates":[98.3333999,8.026653]},"properties":{"id":"node/9992463317","amenity":"clinic","name":"วิวัฒน์ การแพทย์","name_th":"","operator":"","phone":"+66 76 311237","address":"","emergency":""}},{"type":"Feature","geometry":{"type":"Point","coordinates":[98.3631078,7.9025665]},"properties":{"id":"node/10236001876","amenity":"clinic","name":"Clinic","name_th":"","operator":"","phone":"","address":"","emergency":""}},{"type":"Feature","geometry":{"type":"Point","coordinates":[98.3324951,7.8232227]},"properties":{"id":"node/10300088615","amenity":"clinic","name":"Holistic clinic","name_th":"","operator":"","phone":"","address":"","emergency":""}},{"type":"Feature","geometry":{"type":"Point","coordinates":[98.3837575,7.9541421]},"properties":{"id":"node/10304382544","amenity":"clinic","name":"Phimphika","name_th":"","operator":"","phone":"","address":"","emergency":""}},{"type":"Feature","geometry":{"type":"Point","coordinates":[98.3394876,7.898141]},"properties":{"id":"node/10310498432","amenity":"school","name":"Baanbangtong","name_th":"","operator":"","phone":"","address":"","emergency":""}},{"type":"Feature","geometry":{"type":"Point","coordinates":[98.3428156,7.8247834]},"properties":{"id":"node/10896291177","amenity":"clinic","name":"Chalong Medical Clinic","name_th":"","operator":"","phone":"+6683101000266","address":"","emergency":""}},{"type":"Feature","geometry":{"type":"Point","coordinates":[98.2923885,7.8509962]},"properties":{"id":"node/10958548809","amenity":"police","name":"Karon Tourists Police","name_th":"","operator":"กองบัญชาการตำรวจท่องเที่ยว","phone":"","address":"","emergency":""}},{"type":"Feature","geometry":{"type":"Point","coordinates":[98.3888659,7.9551655]},"properties":{"id":"node/10965775883","amenity":"clinic","name":"Kowit Clinic","name_th":"","operator":"","phone":"","address":"","emergency":""}},{"type":"Feature","geometry":{"type":"Point","coordinates":[98.3236833,8.0894042]},"properties":{"id":"node/10977343757","amenity":"college","name":"Thalang Technical College","name_th":"","operator":"","phone":"","address":"","emergency":""}},{"type":"Feature","geometry":{"type":"Point","coordinates":[98.3030661,7.8161475]},"properties":{"id":"node/10980441423","amenity":"clinic","name":"Orthopaedic clinic hip & knee specialist","name_th":"","operator":"","phone":"","address":"","emergency":""}},{"type":"Feature","geometry":{"type":"Point","coordinates":[98.3180693,7.7702123]},"properties":{"id":"node/11000981397","amenity":"fire_station","name":"Fire Station","name_th":"","operator":"","phone":"","address":"","emergency":""}},{"type":"Feature","geometry":{"type":"Point","coordinates":[98.3023636,7.9856225]},"properties":{"id":"node/11061869605","amenity":"clinic","name":"Cherngtalay-Sainamyen International Clinic","name_th":"","operator":"","phone":"+660850210121","address":"Cherngtalay, Thalang District, Phuket","emergency":""}},{"type":"Feature","geometry":{"type":"Point","coordinates":[98.2931868,7.8799879]},"properties":{"id":"node/11064478252","amenity":"police","name":"Police","name_th":"","operator":"","phone":"","address":"","emergency":""}},{"type":"Feature","geometry":{"type":"Point","coordinates":[98.3348349,7.8423038]},"properties":{"id":"node/11078226586","amenity":"clinic","name":"Phetcharat Physical Therapy Clinic","name_th":"","operator":"","phone":"+66835043336","address":"","emergency":""}},{"type":"Feature","geometry":{"type":"Point","coordinates":[98.30284,8.0664036]},"properties":{"id":"node/11148514630","amenity":"fire_station","name":"Fire Station","name_th":"","operator":"","phone":"","address":"","emergency":""}},{"type":"Feature","geometry":{"type":"Point","coordinates":[98.3935855,7.8730907]},"properties":{"id":"node/11405006469","amenity":"school","name":"School","name_th":"","operator":"","phone":"","address":"","emergency":""}},{"type":"Feature","geometry":{"type":"Point","coordinates":[98.3943346,7.8706797]},"properties":{"id":"node/11405133469","amenity":"police","name":"Police","name_th":"","operator":"","phone":"","address":"","emergency":""}},{"type":"Feature","geometry":{"type":"Point","coordinates":[98.3926648,7.8836192]},"properties":{"id":"node/11406641069","amenity":"police","name":"Police","name_th":"","operator":"","phone":"","address":"","emergency":""}},{"type":"Feature","geometry":{"type":"Point","coordinates":[98.2976599,8.074163]},"properties":{"id":"node/11467840604","amenity":"school","name":"School","name_th":"","operator":"","phone":"","address":"","emergency":""}},{"type":"Feature","geometry":{"type":"Point","coordinates":[98.3015511,7.8438175]},"properties":{"id":"node/11745810750","amenity":"clinic","name":"Karon Clinic","name_th":"","operator":"","phone":"","address":"","emergency":""}},{"type":"Feature","geometry":{"type":"Point","coordinates":[98.3061427,7.9933569]},"properties":{"id":"node/11749381902","amenity":"police","name":"Police","name_th":"","operator":"","phone":"","address":"","emergency":""}},{"type":"Feature","geometry":{"type":"Point","coordinates":[98.3029616,7.8229984]},"properties":{"id":"node/11763166380","amenity":"clinic","name":"Dr. Veeva Clinic","name_th":"","operator":"","phone":"+66942282546","address":"","emergency":""}},{"type":"Feature","geometry":{"type":"Point","coordinates":[98.3015229,7.825557]},"properties":{"id":"node/11765684792","amenity":"clinic","name":"Clinic","name_th":"","operator":"","phone":"","address":"","emergency":""}},{"type":"Feature","geometry":{"type":"Point","coordinates":[98.3791694,7.902048]},"properties":{"id":"node/12030726285","amenity":"clinic","name":"คลินิกเด็ก นายแพทย์กมล","name_th":"","operator":"","phone":"","address":"","emergency":""}},{"type":"Feature","geometry":{"type":"Point","coordinates":[98.3787028,7.9021793]},"properties":{"id":"node/12030726291","amenity":"clinic","name":"สมศักดิ์คลินิกเวชกรรม","name_th":"","operator":"","phone":"","address":"","emergency":""}},{"type":"Feature","geometry":{"type":"Point","coordinates":[98.3785829,7.9022164]},"properties":{"id":"node/12030726292","amenity":"clinic","name":"คลินิกแพทย์มนตรี สุติ-นรีเวช","name_th":"","operator":"","phone":"","address":"","emergency":""}},{"type":"Feature","geometry":{"type":"Point","coordinates":[98.3778469,7.9013425]},"properties":{"id":"node/12035038851","amenity":"clinic","name":"คลินิคหมอปิยะ","name_th":"","operator":"","phone":"","address":"","emergency":""}},{"type":"Feature","geometry":{"type":"Point","coordinates":[98.3776558,7.9048666]},"properties":{"id":"node/12039059254","amenity":"clinic","name":"ศีรีชัย คลินิก","name_th":"","operator":"","phone":"","address":"","emergency":""}},{"type":"Feature","geometry":{"type":"Point","coordinates":[98.3778488,7.9053185]},"properties":{"id":"node/12039059257","amenity":"clinic","name":"วันขวัญญ์คลีนิก","name_th":"","operator":"","phone":"","address":"","emergency":""}},{"type":"Feature","geometry":{"type":"Point","coordinates":[98.3228247,7.7728942]},"properties":{"id":"node/12250950186","amenity":"clinic","name":"Physioft","name_th":"","operator":"","phone":"+66 91 555 2696","address":"","emergency":""}},{"type":"Feature","geometry":{"type":"Point","coordinates":[98.3866708,7.9580335]},"properties":{"id":"node/12526323891","amenity":"school","name":"Finnway International School Phuket","name_th":"","operator":"","phone":"+66805429392","address":"","emergency":""}},{"type":"Feature","geometry":{"type":"Point","coordinates":[98.3006626,7.8157444]},"properties":{"id":"node/12774408601","amenity":"clinic","name":"Kata-Sainamyen International Clinic","name_th":"","operator":"","phone":"","address":"R882+56M, Karon, Mueang Phuket District, Phuket 83100","emergency":""}},{"type":"Feature","geometry":{"type":"Point","coordinates":[98.3041765,7.9964712]},"properties":{"id":"node/13208119601","amenity":"hospital","name":"MHCP Medical Health Clinic","name_th":"","operator":"","phone":"0834498998","address":"58, Cherngtalay, 6 Lagoon Rd","emergency":""}},{"type":"Feature","geometry":{"type":"Point","coordinates":[98.3281899,7.9256844]},"properties":{"id":"node/13439500801","amenity":"school","name":"Ban Mai Reab School","name_th":"โรงเรียน อบจ. บ้านไม้เรียบ","operator":"","phone":"","address":"","emergency":""}},{"type":"Feature","geometry":{"type":"Point","coordinates":[98.3058446,8.1050831]},"properties":{"id":"node/13482935866","amenity":"police","name":"Police","name_th":"","operator":"กองบัญชาการตำรวจท่องเที่ยว","phone":"","address":"","emergency":""}},{"type":"Feature","geometry":{"type":"Point","coordinates":[98.2945955,8.0296039]},"properties":{"id":"node/13513899701","amenity":"police","name":"Traffic police","name_th":"","operator":"","phone":"","address":"","emergency":""}},{"type":"Feature","geometry":{"type":"Point","coordinates":[98.3410527,7.8218029]},"properties":{"id":"node/13737262601","amenity":"police","name":"Мусора пасут кольцо","name_th":"","operator":"","phone":"","address":"","emergency":""}},{"type":"Feature","geometry":{"type":"Point","coordinates":[98.2868455,7.9165381]},"properties":{"id":"node/13744985301","amenity":"police","name":"Пост ДПС","name_th":"","operator":"","phone":"","address":"","emergency":""}},{"type":"Feature","geometry":{"type":"Point","coordinates":[98.344165,8.0333154]},"properties":{"id":"node/13760607901","amenity":"school","name":"Thepkrasattree Municipal School","name_th":"","operator":"","phone":"","address":"","emergency":""}},{"type":"Feature","geometry":{"type":"Point","coordinates":[98.3448033,8.0333916]},"properties":{"id":"node/13760608301","amenity":"school","name":"Kokwatmai School","name_th":"","operator":"","phone":"","address":"","emergency":""}},{"type":"Feature","geometry":{"type":"Point","coordinates":[98.2989683,7.8968003]},"properties":{"id":"way/64744424","amenity":"school","name":"Ban Sainamyen Municipality School","name_th":"","operator":"","phone":"","address":"","emergency":""}},{"type":"Feature","geometry":{"type":"Point","coordinates":[98.3675427,7.8979336]},"properties":{"id":"way/152774700","amenity":"hospital","name":"Phuket International Hospital","name_th":"","operator":"","phone":"","address":"Chalermprakiat Ror 9","emergency":""}},{"type":"Feature","geometry":{"type":"Point","coordinates":[98.326073,7.795934]},"properties":{"id":"way/221046012","amenity":"school","name":"Anuban Sai Yuan","name_th":"","operator":"","phone":"","address":"","emergency":""}},{"type":"Feature","geometry":{"type":"Point","coordinates":[98.3260746,7.7798226]},"properties":{"id":"way/221046649","amenity":"school","name":"Watsawangk Aroom School","name_th":"วัดสว่างอารมณ์","operator":"","phone":"","address":"","emergency":""}},{"type":"Feature","geometry":{"type":"Point","coordinates":[98.3263817,7.7806923]},"properties":{"id":"way/221046650","amenity":"school","name":"Three Generation Center Rawai (Sun Sam Wai)","name_th":"","operator":"","phone":"","address":"","emergency":""}},{"type":"Feature","geometry":{"type":"Point","coordinates":[98.3832358,7.8974325]},"properties":{"id":"way/232078198","amenity":"hospital","name":"Vachira Phuket Hospital","name_th":"","operator":"","phone":"076361234","address":"ถนนเยาวราช, Phuket","emergency":""}},{"type":"Feature","geometry":{"type":"Point","coordinates":[98.3863247,7.9122604]},"properties":{"id":"way/233461341","amenity":"university","name":"Phuket Rajabhad University","name_th":"มหาวิทยาลัยราชภัฏภูเก็ต","operator":"","phone":"","address":"","emergency":""}},{"type":"Feature","geometry":{"type":"Point","coordinates":[98.3049436,7.9969481]},"properties":{"id":"way/233759783","amenity":"clinic","name":"Thanyapura medical center","name_th":"","operator":"","phone":"","address":"","emergency":""}},{"type":"Feature","geometry":{"type":"Point","coordinates":[98.344616,7.8210769]},"properties":{"id":"way/243583124","amenity":"police","name":"Phuket Port Control Center","name_th":"","operator":"","phone":"","address":"","emergency":""}},{"type":"Feature","geometry":{"type":"Point","coordinates":[98.3443886,7.8215969]},"properties":{"id":"way/243583125","amenity":"clinic","name":"Phuket Tourist Rescue Center","name_th":"","operator":"","phone":"","address":"","emergency":"ambulance_station"}},{"type":"Feature","geometry":{"type":"Point","coordinates":[98.3410887,8.0679156]},"properties":{"id":"way/245595291","amenity":"school","name":"โรงเรียนเมืองถลาง","name_th":"","operator":"","phone":"","address":"","emergency":""}},{"type":"Feature","geometry":{"type":"Point","coordinates":[98.3503635,8.0685328]},"properties":{"id":"way/245595998","amenity":"school","name":"โรงเรียนบ้านป่าครองชีพ","name_th":"","operator":"","phone":"","address":"","emergency":""}},{"type":"Feature","geometry":{"type":"Point","coordinates":[98.366457,8.1025888]},"properties":{"id":"way/245596860","amenity":"school","name":"โรงเรียนบ้านแหลมทราย","name_th":"","operator":"","phone":"","address":"","emergency":""}},{"type":"Feature","geometry":{"type":"Point","coordinates":[98.2994817,8.0943525]},"properties":{"id":"way/260290992","amenity":"police","name":"Police","name_th":"","operator":"","phone":"","address":"","emergency":""}},{"type":"Feature","geometry":{"type":"Point","coordinates":[98.2831475,7.9540868]},"properties":{"id":"way/260318985","amenity":"police","name":"Kamala Central Police Department","name_th":"","operator":"","phone":"","address":"","emergency":""}},{"type":"Feature","geometry":{"type":"Point","coordinates":[98.3695232,7.9517477]},"properties":{"id":"way/289134495","amenity":"school","name":"British International School Phuket","name_th":"โรงเรียนนานาชาติบริติช ภูเก็ต","operator":"","phone":"","address":"Thepkrasattri Road, Koh Kaew, Phuket","emergency":""}},{"type":"Feature","geometry":{"type":"Point","coordinates":[98.352807,7.8940254]},"properties":{"id":"way/316508940","amenity":"university","name":"Prince of Songkla University, Phuket Campus","name_th":"มหาวิทยาลัยสงขลานครินทร์ วิทยาเขตภูเก็ต","operator":"","phone":"","address":"ถนนวิชิตสงคราม, ภูเก็ต","emergency":""}},{"type":"Feature","geometry":{"type":"Point","coordinates":[98.4021322,8.0304221]},"properties":{"id":"way/317215990","amenity":"school","name":"Ban Pa Klok School","name_th":"","operator":"","phone":"","address":"","emergency":""}},{"type":"Feature","geometry":{"type":"Point","coordinates":[98.3916396,7.9982238]},"properties":{"id":"way/321362371","amenity":"school","name":"School","name_th":"","operator":"","phone":"","address":"","emergency":""}},{"type":"Feature","geometry":{"type":"Point","coordinates":[98.3392847,7.8183547]},"properties":{"id":"way/383731718","amenity":"school","name":"Phuket Provincial Administrative Organization","name_th":"","operator":"","phone":"","address":"ถนนวิเศษ","emergency":""}},{"type":"Feature","geometry":{"type":"Point","coordinates":[98.3732855,7.8850218]},"properties":{"id":"way/411052916","amenity":"school","name":"Phuket Thaihua Asean Wittaya School","name_th":"","operator":"","phone":"","address":"","emergency":""}},{"type":"Feature","geometry":{"type":"Point","coordinates":[98.3605592,7.909904]},"properties":{"id":"way/411227981","amenity":"school","name":"Kajonkiet International School Phuket","name_th":"","operator":"","phone":"","address":"","emergency":""}},{"type":"Feature","geometry":{"type":"Point","coordinates":[98.3621907,7.9077135]},"properties":{"id":"way/411227983","amenity":"school","name":"QSI International School of Phuket","name_th":"","operator":"","phone":"","address":"","emergency":""}},{"type":"Feature","geometry":{"type":"Point","coordinates":[98.3641119,7.8815744]},"properties":{"id":"way/411395292","amenity":"police","name":"Police","name_th":"","operator":"","phone":"","address":"","emergency":""}},{"type":"Feature","geometry":{"type":"Point","coordinates":[98.3679287,7.8889283]},"properties":{"id":"way/411643337","amenity":"police","name":"Police","name_th":"","operator":"","phone":"","address":"","emergency":""}},{"type":"Feature","geometry":{"type":"Point","coordinates":[98.3854721,7.8919793]},"properties":{"id":"way/412050373","amenity":"police","name":"Phuket Provincial Police","name_th":"","operator":"","phone":"","address":"","emergency":""}},{"type":"Feature","geometry":{"type":"Point","coordinates":[98.3335633,7.9104797]},"properties":{"id":"way/412468548","amenity":"police","name":"Traffic Police Box","name_th":"","operator":"","phone":"","address":"","emergency":""}},{"type":"Feature","geometry":{"type":"Point","coordinates":[98.3480956,7.9085962]},"properties":{"id":"way/414167225","amenity":"police","name":"Traffic Police Box Thung-Thong","name_th":"","operator":"","phone":"","address":"","emergency":""}},{"type":"Feature","geometry":{"type":"Point","coordinates":[98.3972652,8.1524372]},"properties":{"id":"way/459355810","amenity":"school","name":"โรงเรียนบ้านเจ้าขรัว","name_th":"","operator":"","phone":"","address":"","emergency":""}},{"type":"Feature","geometry":{"type":"Point","coordinates":[98.3698761,8.1698959]},"properties":{"id":"way/459398544","amenity":"school","name":"โรงเรียนบ้านบากัน","name_th":"","operator":"","phone":"","address":"","emergency":""}},{"type":"Feature","geometry":{"type":"Point","coordinates":[98.3785309,8.1534482]},"properties":{"id":"way/459400895","amenity":"school","name":"โรงเรียนบ้านบางจัน","name_th":"","operator":"","phone":"","address":"","emergency":""}},{"type":"Feature","geometry":{"type":"Point","coordinates":[98.3838383,7.9582075]},"properties":{"id":"way/460008336","amenity":"school","name":"Ban Bang Ku","name_th":"","operator":"","phone":"","address":"","emergency":""}},{"type":"Feature","geometry":{"type":"Point","coordinates":[98.3764474,7.9204099]},"properties":{"id":"way/460022802","amenity":"school","name":"Ban Tung Kha School","name_th":"","operator":"","phone":"","address":"","emergency":""}},{"type":"Feature","geometry":{"type":"Point","coordinates":[98.3892876,7.8424256]},"properties":{"id":"way/460023840","amenity":"school","name":"Ban Ao Nam Bo","name_th":"","operator":"","phone":"","address":"","emergency":""}},{"type":"Feature","geometry":{"type":"Point","coordinates":[98.3111382,7.8190301]},"properties":{"id":"way/460116352","amenity":"school","name":"Baan Kata School","name_th":"","operator":"","phone":"","address":"","emergency":""}},{"type":"Feature","geometry":{"type":"Point","coordinates":[98.3601872,7.8719693]},"properties":{"id":"way/485839439","amenity":"hospital","name":"Dibuk hospital","name_th":"","operator":"","phone":"","address":"","emergency":"yes"}},{"type":"Feature","geometry":{"type":"Point","coordinates":[98.4048755,7.8808649]},"properties":{"id":"way/487935968","amenity":"hospital","name":"Phuket Provincial Hospital","name_th":"","operator":"","phone":"","address":"","emergency":""}},{"type":"Feature","geometry":{"type":"Point","coordinates":[98.3444494,7.9114121]},"properties":{"id":"way/516618775","amenity":"school","name":"School","name_th":"","operator":"","phone":"","address":"","emergency":""}},{"type":"Feature","geometry":{"type":"Point","coordinates":[98.3099371,8.1143796]},"properties":{"id":"way/542782498","amenity":"fire_station","name":"Fire Station 1","name_th":"","operator":"","phone":"","address":"","emergency":""}},{"type":"Feature","geometry":{"type":"Point","coordinates":[98.3014144,8.1048526]},"properties":{"id":"way/542782508","amenity":"fire_station","name":"Fire Station 2","name_th":"","operator":"","phone":"","address":"","emergency":""}},{"type":"Feature","geometry":{"type":"Point","coordinates":[98.3860027,7.8795986]},"properties":{"id":"way/614319050","amenity":"school","name":"Muang Phuket Municipal School","name_th":"","operator":"","phone":"","address":"","emergency":""}},{"type":"Feature","geometry":{"type":"Point","coordinates":[98.3716188,7.8631255]},"properties":{"id":"way/615085563","amenity":"fire_station","name":"Fire Station","name_th":"","operator":"","phone":"","address":"","emergency":""}},{"type":"Feature","geometry":{"type":"Point","coordinates":[98.3806943,7.8765748]},"properties":{"id":"way/615096527","amenity":"school","name":"Bantaladnua school (wankroo 2502)","name_th":"","operator":"","phone":"","address":"","emergency":""}},{"type":"Feature","geometry":{"type":"Point","coordinates":[98.3749983,7.8682394]},"properties":{"id":"way/615403571","amenity":"school","name":"Dowroongwittaya School","name_th":"","operator":"","phone":"","address":"","emergency":""}},{"type":"Feature","geometry":{"type":"Point","coordinates":[98.3595841,7.8697855]},"properties":{"id":"way/615685354","amenity":"school","name":"Kajonkiet Pattana School","name_th":"","operator":"","phone":"","address":"","emergency":""}},{"type":"Feature","geometry":{"type":"Point","coordinates":[98.3603047,7.8703705]},"properties":{"id":"way/615685358","amenity":"school","name":"Kajonkiet Pattana School","name_th":"","operator":"","phone":"","address":"","emergency":""}},{"type":"Feature","geometry":{"type":"Point","coordinates":[98.3617349,7.8851404]},"properties":{"id":"way/616149468","amenity":"school","name":"HeadStart International School, Phuket","name_th":"","operator":"","phone":"","address":"","emergency":""}},{"type":"Feature","geometry":{"type":"Point","coordinates":[98.3624365,7.8850821]},"properties":{"id":"way/616149469","amenity":"police","name":"Vichit Provincial Police Station","name_th":"","operator":"","phone":"","address":"","emergency":""}},{"type":"Feature","geometry":{"type":"Point","coordinates":[98.3892211,7.871349]},"properties":{"id":"way/617177251","amenity":"college","name":"Phuket Polytechnic College","name_th":"","operator":"","phone":"","address":"","emergency":""}},{"type":"Feature","geometry":{"type":"Point","coordinates":[98.3013405,7.8956927]},"properties":{"id":"way/639893301","amenity":"hospital","name":"Patong Hospital","name_th":"","operator":"","phone":"+66 76 342 633","address":"ไสน้ำเย็นทิศ","emergency":"yes"}},{"type":"Feature","geometry":{"type":"Point","coordinates":[98.3677079,7.8977383]},"properties":{"id":"way/699477982","amenity":"hospital","name":"Phuket International Hospital","name_th":"","operator":"","phone":"","address":"Chalermprakiat Ror 9","emergency":""}},{"type":"Feature","geometry":{"type":"Point","coordinates":[98.3887438,7.8930509]},"properties":{"id":"way/700809247","amenity":"school","name":"โรงเรียนภูเก็ตวิทยาลัย","name_th":"","operator":"","phone":"","address":"","emergency":""}},{"type":"Feature","geometry":{"type":"Point","coordinates":[98.3413775,8.0889952]},"properties":{"id":"way/715920780","amenity":"police","name":"Highway police Community Services Unit Phuket","name_th":"","operator":"","phone":"","address":"","emergency":""}},{"type":"Feature","geometry":{"type":"Point","coordinates":[98.3906567,7.8920241]},"properties":{"id":"way/753633513","amenity":"school","name":"โรงเรียนสตรีภูเก็ต","name_th":"","operator":"","phone":"","address":"","emergency":""}},{"type":"Feature","geometry":{"type":"Point","coordinates":[98.3072347,7.9895153]},"properties":{"id":"way/1028561006","amenity":"police","name":"Chong Thale Police Station","name_th":"","operator":"","phone":"","address":"","emergency":""}},{"type":"Feature","geometry":{"type":"Point","coordinates":[98.3850887,7.896091]},"properties":{"id":"way/1037027419","amenity":"clinic","name":"Bunloet Medical Specialist Clinic","name_th":"","operator":"","phone":"","address":"","emergency":""}},{"type":"Feature","geometry":{"type":"Point","coordinates":[98.2785871,7.9493877]},"properties":{"id":"way/1042984694","amenity":"school","name":"36th Rajaprajanugroh School","name_th":"","operator":"","phone":"","address":"","emergency":""}},{"type":"Feature","geometry":{"type":"Point","coordinates":[98.3064949,7.9030159]},"properties":{"id":"way/1049368775","amenity":"school","name":"School","name_th":"","operator":"","phone":"","address":"","emergency":""}},{"type":"Feature","geometry":{"type":"Point","coordinates":[98.3329927,7.785542]},"properties":{"id":"way/1068877355","amenity":"school","name":"Lighthouse Phuket International School","name_th":"","operator":"","phone":"","address":"","emergency":""}},{"type":"Feature","geometry":{"type":"Point","coordinates":[98.3431557,7.8561602]},"properties":{"id":"way/1073017283","amenity":"clinic","name":"Square clinic","name_th":"","operator":"","phone":"","address":"","emergency":""}},{"type":"Feature","geometry":{"type":"Point","coordinates":[98.4061809,7.8073468]},"properties":{"id":"way/1076321740","amenity":"school","name":"Islamphattana School","name_th":"","operator":"","phone":"","address":"","emergency":""}},{"type":"Feature","geometry":{"type":"Point","coordinates":[98.3723747,7.8615535]},"properties":{"id":"way/1080300998","amenity":"police","name":"Police","name_th":"","operator":"","phone":"","address":"","emergency":""}},{"type":"Feature","geometry":{"type":"Point","coordinates":[98.3912564,7.8740671]},"properties":{"id":"way/1081933791","amenity":"fire_station","name":"Fire Station","name_th":"","operator":"","phone":"","address":"","emergency":""}},{"type":"Feature","geometry":{"type":"Point","coordinates":[98.2995308,8.0948245]},"properties":{"id":"way/1131097997","amenity":"police","name":"Sakhu provincial police station","name_th":"","operator":"","phone":"","address":"","emergency":""}},{"type":"Feature","geometry":{"type":"Point","coordinates":[98.372827,7.9900119]},"properties":{"id":"way/1173271086","amenity":"clinic","name":"Clinic","name_th":"","operator":"","phone":"","address":"","emergency":""}},{"type":"Feature","geometry":{"type":"Point","coordinates":[98.4008173,7.8208995]},"properties":{"id":"way/1181095675","amenity":"fire_station","name":"Fire Station","name_th":"","operator":"","phone":"","address":"","emergency":""}},{"type":"Feature","geometry":{"type":"Point","coordinates":[98.3934268,7.8739779]},"properties":{"id":"way/1184135968","amenity":"school","name":"Bannangneaw Municipal School","name_th":"","operator":"","phone":"","address":"","emergency":""}},{"type":"Feature","geometry":{"type":"Point","coordinates":[98.3936131,7.8703123]},"properties":{"id":"way/1184502657","amenity":"police","name":"Phuket Immigration Investigation","name_th":"","operator":"","phone":"","address":"","emergency":""}},{"type":"Feature","geometry":{"type":"Point","coordinates":[98.3921954,7.8708999]},"properties":{"id":"way/1184502670","amenity":"college","name":"Phuket Vocational College","name_th":"","operator":"","phone":"","address":"","emergency":""}},{"type":"Feature","geometry":{"type":"Point","coordinates":[98.3731066,7.890618]},"properties":{"id":"way/1185931890","amenity":"fire_station","name":"สถานีป้องกันและบรรเทาสาธารณะภัย เทศบาลตำบลวิชิต (ศูนย์สุรกุล)","name_th":"","operator":"","phone":"","address":"","emergency":""}},{"type":"Feature","geometry":{"type":"Point","coordinates":[98.4274271,7.8814598]},"properties":{"id":"way/1185980686","amenity":"school","name":"Siray island school","name_th":"","operator":"","phone":"","address":"","emergency":""}},{"type":"Feature","geometry":{"type":"Point","coordinates":[98.3742882,7.9062814]},"properties":{"id":"way/1188232412","amenity":"school","name":"Ban Sam Kong Municipal School","name_th":"","operator":"","phone":"","address":"","emergency":""}},{"type":"Feature","geometry":{"type":"Point","coordinates":[98.3274809,7.9770938]},"properties":{"id":"way/1196094657","amenity":"school","name":"Life School Phuket","name_th":"","operator":"","phone":"","address":"","emergency":""}},{"type":"Feature","geometry":{"type":"Point","coordinates":[98.3210575,8.0158005]},"properties":{"id":"way/1199359697","amenity":"school","name":"School","name_th":"","operator":"","phone":"","address":"","emergency":""}},{"type":"Feature","geometry":{"type":"Point","coordinates":[98.3217985,8.045328]},"properties":{"id":"way/1203012069","amenity":"school","name":"School","name_th":"","operator":"","phone":"","address":"","emergency":""}},{"type":"Feature","geometry":{"type":"Point","coordinates":[98.3238329,8.0099018]},"properties":{"id":"way/1206913998","amenity":"school","name":"School","name_th":"","operator":"","phone":"","address":"","emergency":""}},{"type":"Feature","geometry":{"type":"Point","coordinates":[98.3537127,7.8621446]},"properties":{"id":"way/1210776134","amenity":"school","name":"Oak Meadow International School Phuket","name_th":"","operator":"","phone":"","address":"","emergency":""}},{"type":"Feature","geometry":{"type":"Point","coordinates":[98.3515599,7.8639046]},"properties":{"id":"way/1210776135","amenity":"school","name":"MGW Education Thailand","name_th":"","operator":"","phone":"","address":"","emergency":""}},{"type":"Feature","geometry":{"type":"Point","coordinates":[98.3660092,7.8408159]},"properties":{"id":"way/1214113173","amenity":"school","name":"Ruamrudee international school Phuket","name_th":"","operator":"","phone":"","address":"","emergency":""}},{"type":"Feature","geometry":{"type":"Point","coordinates":[98.4089019,8.0578283]},"properties":{"id":"way/1214118023","amenity":"school","name":"Ban Bangrong School","name_th":"","operator":"","phone":"","address":"","emergency":""}},{"type":"Feature","geometry":{"type":"Point","coordinates":[98.4214984,8.0682172]},"properties":{"id":"way/1214118026","amenity":"school","name":"School","name_th":"","operator":"","phone":"","address":"","emergency":""}},{"type":"Feature","geometry":{"type":"Point","coordinates":[98.3878933,8.0718368]},"properties":{"id":"way/1214118031","amenity":"school","name":"Ban Para School","name_th":"","operator":"","phone":"","address":"","emergency":""}},{"type":"Feature","geometry":{"type":"Point","coordinates":[98.332632,7.8489688]},"properties":{"id":"way/1218215549","amenity":"school","name":"Banchalong School","name_th":"","operator":"","phone":"","address":"","emergency":""}},{"type":"Feature","geometry":{"type":"Point","coordinates":[98.4104019,8.0588282]},"properties":{"id":"way/1234954217","amenity":"school","name":"Tan-eem Islamic Learning center","name_th":"","operator":"","phone":"","address":"","emergency":""}},{"type":"Feature","geometry":{"type":"Point","coordinates":[98.3070792,8.1317063]},"properties":{"id":"way/1257330893","amenity":"school","name":"Ban MaiKhao School","name_th":"","operator":"","phone":"","address":"","emergency":""}},{"type":"Feature","geometry":{"type":"Point","coordinates":[98.3519004,7.9020596]},"properties":{"id":"way/1258541630","amenity":"school","name":"โรงเรียนบ้านเก็ตโฮ่","name_th":"โรงเรียนบ้านเก็ตโฮ่","operator":"","phone":"","address":"","emergency":""}},{"type":"Feature","geometry":{"type":"Point","coordinates":[98.3759977,7.9041094]},"properties":{"id":"way/1262489352","amenity":"hospital","name":"Bangkok Hospital Phuket","name_th":"โรงพยาบาลกรุงเทพ ภูเก็ต","operator":"","phone":"","address":"","emergency":""}},{"type":"Feature","geometry":{"type":"Point","coordinates":[98.3862227,7.8949166]},"properties":{"id":"way/1291687773","amenity":"college","name":"Phuket Technical College","name_th":"","operator":"","phone":"","address":"","emergency":""}},{"type":"Feature","geometry":{"type":"Point","coordinates":[98.3862526,7.8969467]},"properties":{"id":"way/1291688795","amenity":"school","name":"Wittayasatid School","name_th":"","operator":"","phone":"","address":"","emergency":""}},{"type":"Feature","geometry":{"type":"Point","coordinates":[98.3892934,7.8671012]},"properties":{"id":"way/1299923188","amenity":"school","name":"โรงเรียนเฉลิมพระเกียรติ","name_th":"","operator":"","phone":"","address":"","emergency":""}},{"type":"Feature","geometry":{"type":"Point","coordinates":[98.3854095,7.8935374]},"properties":{"id":"way/1301020790","amenity":"police","name":"Phuket Tourist Police","name_th":"","operator":"กองบัญชาการตำรวจท่องเที่ยว","phone":"","address":"","emergency":""}},{"type":"Feature","geometry":{"type":"Point","coordinates":[98.3847512,7.8875525]},"properties":{"id":"way/1301550202","amenity":"school","name":"Plook Pan Ya School","name_th":"","operator":"","phone":"","address":"","emergency":""}},{"type":"Feature","geometry":{"type":"Point","coordinates":[98.3871287,7.8923263]},"properties":{"id":"way/1359342882","amenity":"police","name":"Mueng Phuket Provincial Police Station","name_th":"","operator":"","phone":"","address":"","emergency":""}},{"type":"Feature","geometry":{"type":"Point","coordinates":[98.4086157,8.0199144]},"properties":{"id":"way/1409156384","amenity":"school","name":"โรงเรียนวีรสตรีอนุสรณ์","name_th":"","operator":"","phone":"","address":"","emergency":""}},{"type":"Feature","geometry":{"type":"Point","coordinates":[98.4088355,8.0175813]},"properties":{"id":"way/1409156385","amenity":"school","name":"Phuket Panyanukul School","name_th":"","operator":"","phone":"","address":"","emergency":""}}]}